City_ID,City,Country,Lat,Lng,Max Temp,Humidity,Cloudiness,Wind Speed,Current Description
0,Washington,US,47.5001,-120.5015,30.58,85,23,5.3,few clouds
1,Carnarvon,AU,-24.8667,113.6333,72.01,65,0,23.53,clear sky
2,Kropotkin,RU,45.4375,40.5756,49.93,69,100,9.28,overcast clouds
3,Rikitea,PF,-23.1203,-134.9692,73.71,82,97,6.24,overcast clouds
4,Geraldton,AU,-28.7667,114.6,72.01,56,0,20.71,clear sky
5,Barrow,US,71.2906,-156.7887,10.42,85,100,14.97,light snow
6,Kushima,JP,31.4583,131.2333,63.32,89,16,4.25,few clouds
7,Aklavik,CA,68.2191,-135.0107,7.36,96,100,6.22,light snow
8,Yellowknife,CA,62.456,-114.3525,14.52,85,100,4.61,light snow
9,Cayenne,GF,4.9333,-52.3333,73.44,94,100,0.0,overcast clouds
10,Abong Mbang,CM,3.9833,13.1833,88.38,35,28,2.59,scattered clouds
11,Longyearbyen,SJ,78.2186,15.6401,17.44,79,20,9.22,few clouds
12,Puri,IN,19.8,85.85,84.72,41,6,5.3,clear sky
13,Whitehorse,CA,60.7161,-135.0538,22.01,86,100,4.61,light snow
14,Seymchan,RU,62.8833,152.4333,-26.75,98,100,1.63,overcast clouds
15,Castro,BR,-24.7911,-50.0119,59.02,91,100,7.61,overcast clouds
16,Mana,GF,5.6592,-53.7767,76.42,90,73,6.87,broken clouds
17,Hobart,AU,-42.8794,147.3294,64.26,70,0,4.61,light rain
18,Saint-Felicien,CA,48.6501,-72.4491,30.7,86,75,9.22,broken clouds
19,Sitka,US,57.0531,-135.33,37.29,75,100,5.75,overcast clouds
20,Vaini,TO,-21.2,-175.2,77.16,94,40,2.3,scattered clouds
21,Faanui,PF,-16.4833,-151.75,78.26,75,75,15.95,broken clouds
22,Punta Arenas,CL,-53.15,-70.9167,44.71,61,20,23.02,few clouds
23,Trondheim,NO,63.4305,10.3951,44.69,64,52,8.01,broken clouds
24,Shahdadkot,PK,27.8477,67.9055,85.44,11,80,2.19,broken clouds
25,El Sauzal,MX,31.9,-116.6833,57.18,39,5,2.44,clear sky
26,Windhoek,NA,-22.5594,17.0832,88.29,21,20,5.75,few clouds
27,Butaritari,KI,3.0707,172.7902,81.14,77,69,9.22,broken clouds
28,Port Elizabeth,ZA,-33.918,25.5701,71.31,56,20,13.8,few clouds
29,Rio Grande,BR,-32.035,-52.0986,63.95,78,0,10.47,clear sky
30,Prudentopolis,BR,-25.2131,-50.9778,60.8,85,99,4.41,overcast clouds
31,Ribeira Grande,PT,38.5167,-28.7,61.2,77,20,5.75,few clouds
32,Chimoio,MZ,-19.1164,33.4833,84.06,61,40,3.44,scattered clouds
33,Busselton,AU,-33.65,115.3333,63.64,57,52,20.07,broken clouds
34,Cidreira,BR,-30.1811,-50.2056,71.06,87,61,8.32,broken clouds
35,Birin,NP,26.8865,88.0718,61.79,59,0,4.05,clear sky
36,Mahebourg,MU,-20.4081,57.7,82.69,61,40,11.5,scattered clouds
37,Hermanus,ZA,-34.4187,19.2345,71.8,55,42,17.54,scattered clouds
38,Nouadhibou,MR,20.931,-17.0347,70.93,47,0,11.36,clear sky
39,Saskylakh,RU,71.9167,114.0833,-27.24,100,99,4.36,overcast clouds
40,San Quintin,MX,30.4833,-115.95,58.46,53,1,1.21,clear sky
41,Albany,US,42.6001,-73.9662,39.51,65,7,3.0,clear sky
42,Mataura,NZ,-46.1927,168.8643,40.37,79,94,2.28,overcast clouds
43,Kalabo,ZM,-14.97,22.6814,86.81,39,99,9.42,overcast clouds
44,Murgab,TM,37.4966,61.9714,71.47,30,0,9.22,clear sky
45,Lebu,CL,-37.6167,-73.65,54.84,91,10,16.17,clear sky
46,Richards Bay,ZA,-28.783,32.0377,76.37,66,99,8.75,overcast clouds
47,Alice Springs,AU,-23.7,133.8833,81.95,61,75,10.36,broken clouds
48,Kahului,US,20.8947,-156.47,71.83,80,0,11.01,clear sky
49,Mar Del Plata,AR,-38.0023,-57.5575,62.94,94,40,15.01,scattered clouds
50,Georgetown,MY,5.4112,100.3354,89.53,74,20,9.22,few clouds
51,Leshukonskoye,RU,64.8989,45.7622,5.79,97,98,4.59,overcast clouds
52,Kudahuvadhoo,MV,2.6708,72.8944,81.97,69,68,7.02,broken clouds
53,Ushuaia,AR,-54.8,-68.3,40.66,75,75,6.91,light intensity drizzle
54,Cabo San Lucas,MX,22.8909,-109.9124,68.5,70,0,2.82,clear sky
55,Tambopata,PE,-12.7333,-69.1833,69.19,99,25,1.74,scattered clouds
56,San Patricio,US,28.017,-97.5169,57.07,93,100,19.15,overcast clouds
57,Vila Franca Do Campo,PT,37.7167,-25.4333,63.19,79,100,4.74,overcast clouds
58,Palamos,ES,41.8484,3.1291,60.3,28,78,7.0,broken clouds
59,Udachnyy,RU,66.4167,112.4,-27.29,100,99,3.4,overcast clouds
60,Hasaki,JP,35.7333,140.8333,57.6,73,100,14.63,light rain
61,Kapaa,US,22.0752,-159.319,71.92,72,100,21.85,overcast clouds
62,Tasiilaq,GL,65.6145,-37.6368,35.76,61,100,11.59,overcast clouds
63,Ancud,CL,-41.8697,-73.8203,48.15,78,4,4.81,clear sky
64,Boende,CD,-0.2167,20.8667,73.45,94,100,2.62,overcast clouds
65,Bluff,NZ,-46.6,168.3333,47.79,60,45,9.4,scattered clouds
66,Chokurdakh,RU,70.6333,147.9167,-43.02,100,92,3.18,overcast clouds
67,Jumla,NP,29.2747,82.1838,62.91,28,0,6.31,clear sky
68,Plouzane,FR,48.3833,-4.6167,53.65,87,75,17.27,light rain
69,Kruisfontein,ZA,-34.0033,24.7314,68.88,38,4,14.99,clear sky
70,Salalah,OM,17.0151,54.0924,84.29,51,20,9.22,few clouds
71,Lavrentiya,RU,65.5833,-171.0,6.78,83,100,10.78,overcast clouds
72,Rock Sound,BS,24.9,-76.2,78.98,78,8,4.18,clear sky
73,Omsukchan,RU,62.5333,155.8,-36.38,96,14,3.13,few clouds
74,Cape Town,ZA,-33.9258,18.4232,76.1,46,20,23.02,few clouds
75,San Cristobal,VE,7.7669,-72.225,63.88,94,85,1.39,overcast clouds
76,Pevek,RU,69.7008,170.3133,-8.93,96,100,6.15,overcast clouds
77,Bengkulu,ID,-3.8004,102.2655,79.54,85,67,5.35,broken clouds
78,Atuona,PF,-9.8,-139.0333,77.65,71,100,12.37,overcast clouds
79,New Norfolk,AU,-42.7826,147.0587,63.91,63,100,1.01,moderate rain
80,Solnechnyy,RU,50.7214,136.6319,11.57,87,100,13.91,light snow
81,Muros,ES,42.7762,-9.0603,57.09,69,100,15.01,overcast clouds
82,Carutapera,BR,-1.195,-46.02,80.24,74,100,6.76,overcast clouds
83,Vilshofen,DE,48.6333,13.1833,45.97,91,100,6.62,overcast clouds
84,Coihaique,CL,-45.5752,-72.0662,45.21,75,0,5.75,clear sky
85,Alofi,NU,-19.0595,-169.9187,73.29,94,10,3.44,clear sky
86,Dikson,RU,73.5069,80.5464,4.69,95,100,16.96,overcast clouds
87,Bima,ID,-8.4667,118.7167,80.33,85,100,1.95,light rain
88,Bambous Virieux,MU,-20.3428,57.7575,82.65,61,40,11.5,scattered clouds
89,Saldanha,ZA,-33.0117,17.9442,75.25,59,7,23.51,clear sky
90,Padang,ID,-0.9492,100.3543,86.05,78,75,5.03,broken clouds
91,Thompson,CA,55.7435,-97.8558,21.36,100,0,3.44,clear sky
92,Isangel,VU,-19.55,169.2667,73.51,88,100,4.61,overcast clouds
93,Selma,US,36.5708,-119.6121,44.65,70,0,3.44,clear sky
94,Oxapampa,PE,-10.5775,-75.4017,54.37,94,93,5.32,overcast clouds
95,Charlestown,AU,-32.95,151.6667,65.82,74,90,3.0,overcast clouds
96,Ponta Do Sol,PT,32.6667,-17.1,71.13,69,87,3.22,overcast clouds
97,Porto Novo,BJ,6.4965,2.6036,85.82,53,99,3.04,overcast clouds
98,Kavieng,PG,-2.5744,150.7967,82.42,65,7,5.75,clear sky
99,Bredasdorp,ZA,-34.5322,20.0403,71.46,40,24,14.2,few clouds
100,Pisco,PE,-13.7,-76.2167,66.25,82,75,4.61,mist
101,Rawson,AR,-43.3002,-65.1023,62.26,49,9,16.17,clear sky
102,Torbay,CA,47.6666,-52.7314,32.27,94,0,6.91,clear sky
103,Severo-Kurilsk,RU,50.6789,156.125,32.22,72,81,18.45,broken clouds
104,Vostok,RU,46.4856,135.8833,14.77,95,100,10.07,light snow
105,Saint-Philippe,RE,-21.3585,55.7679,85.12,70,9,14.43,clear sky
106,Jalu,LY,29.0331,21.5482,68.79,44,96,6.17,overcast clouds
107,Sept-Iles,CA,50.2001,-66.3821,28.4,88,75,6.91,broken clouds
108,Ishigaki,JP,24.3448,124.1572,73.53,83,75,12.66,broken clouds
109,Hobyo,SO,5.3505,48.5268,83.84,60,28,15.41,scattered clouds
110,Agadez,NE,19.75,10.25,73.56,20,14,9.17,few clouds
111,Mangan,IN,27.5167,88.5333,71.87,48,0,4.68,clear sky
112,Vrangel,RU,42.7297,133.0839,32.47,56,17,16.93,few clouds
113,Leh,IN,34.1667,77.5833,28.29,51,41,3.47,scattered clouds
114,Haines Junction,CA,60.7522,-137.5108,13.95,92,100,0.0,overcast clouds
115,Karratha,AU,-20.7377,116.8463,84.74,50,4,15.5,clear sky
116,Tuktoyaktuk,CA,69.4541,-133.0374,8.04,95,100,7.87,overcast clouds
117,Nizhniy Tsasuchey,RU,50.5167,115.1333,1.35,84,100,8.79,overcast clouds
118,Kenora,CA,49.8167,-94.4337,34.77,86,20,9.22,few clouds
119,Banda Aceh,ID,5.5577,95.3222,83.19,71,98,14.32,overcast clouds
120,East London,ZA,-33.0153,27.9116,65.34,88,75,8.05,broken clouds
121,Hithadhoo,MV,-0.6,73.0833,81.93,74,8,12.48,clear sky
122,Port Alfred,ZA,-33.5906,26.891,67.17,80,40,5.01,scattered clouds
123,Krasnoselkup,RU,65.7,82.4667,-18.62,91,17,7.58,few clouds
124,Harper,LR,4.375,-7.7169,82.99,71,2,8.28,clear sky
125,Taoudenni,ML,22.6783,-3.9836,80.15,18,100,13.69,overcast clouds
126,Chicama,PE,-7.8447,-79.1469,61.34,91,96,4.92,overcast clouds
127,Qaanaaq,GL,77.484,-69.3632,-4.85,75,83,6.73,broken clouds
128,Cotonou,BJ,6.3654,2.4183,85.98,70,40,5.75,scattered clouds
129,Umea,SE,63.8284,20.2597,31.93,86,75,5.75,broken clouds
130,Praya,CV,14.9215,-23.5087,75.74,69,0,13.8,clear sky
131,Vila Velha,BR,-20.3297,-40.2925,71.94,90,75,3.44,broken clouds
132,Luwingu,ZM,-10.2621,29.9271,83.59,36,94,7.05,overcast clouds
133,Perth,AU,-31.9333,115.8333,73.58,53,0,18.41,clear sky
134,La Rochelle,FR,46.1667,-1.15,46.87,100,0,9.22,clear sky
135,Arraial Do Cabo,BR,-22.9661,-42.0278,71.56,83,40,4.61,scattered clouds
136,Norman Wells,CA,65.282,-126.8329,10.44,92,100,0.0,light snow
137,Burnie,AU,-41.0667,145.9167,54.95,83,100,7.02,moderate rain
138,Sherlovaya Gora,RU,50.5667,116.25,-7.76,88,94,4.43,overcast clouds
139,Baykit,RU,61.67,96.37,-31.05,99,21,3.09,few clouds
140,Loukhi,RU,66.0764,33.0381,19.94,81,76,6.11,broken clouds
141,Port Blair,IN,11.6667,92.75,82.4,73,87,7.7,overcast clouds
142,Mukhen,RU,48.1,136.1,19.42,93,100,1.77,light snow
143,Klaksvik,FO,62.2266,-6.589,50.92,96,89,23.24,light rain
144,Florianopolis,BR,-27.6146,-48.5012,68.41,96,100,11.5,overcast clouds
145,Kamaishi,JP,39.2667,141.8833,55.72,76,24,10.04,few clouds
146,Seoul,KR,37.5683,126.9778,43.99,37,0,8.05,clear sky
147,Coteana,RO,44.3,24.4667,43.54,54,59,1.19,broken clouds
148,Palana,RU,59.1167,159.9667,6.76,85,65,7.49,broken clouds
149,Puerto Leguizamo,CO,-0.1934,-74.7819,69.69,99,88,2.04,overcast clouds
150,Chernyshevskiy,RU,63.0128,112.4714,-30.21,98,87,3.0,overcast clouds
151,Panguna,PG,-6.3164,155.4848,70.18,97,89,0.87,light rain
152,Upernavik,GL,72.7868,-56.1549,11.37,93,100,8.5,overcast clouds
153,Hilo,US,19.7297,-155.09,71.33,73,100,5.75,overcast clouds
154,Vega De Alatorre,MX,20.0333,-96.6333,74.14,92,96,5.73,overcast clouds
155,Naze,JP,28.3667,129.4833,68.92,75,99,16.55,overcast clouds
156,Colares,PT,38.7992,-9.4469,53.8,76,0,8.01,clear sky
157,Xining,CN,36.6167,101.7667,44.33,25,5,2.62,clear sky
158,Bethel,US,41.3712,-73.414,41.76,60,75,3.44,broken clouds
159,Constitucion,CL,-35.3333,-72.4167,58.37,66,0,3.31,clear sky
160,Port Lincoln,AU,-34.7333,135.8667,62.17,80,78,14.56,broken clouds
161,Mulchen,CL,-37.7167,-72.2333,53.94,75,0,6.06,clear sky
162,Timizart,DZ,36.8,4.2667,58.78,60,12,8.9,few clouds
163,Akyab,MM,20.15,92.9,81.41,62,51,11.25,broken clouds
164,Sandnessjoen,NO,66.0217,12.6316,38.64,62,89,5.01,overcast clouds
165,Mount Isa,AU,-20.7333,139.5,98.37,18,55,9.22,broken clouds
166,Tuatapere,NZ,-46.1333,167.6833,45.21,76,95,4.92,overcast clouds
167,Puerto Ayora,EC,-0.7393,-90.3518,65.55,100,91,1.99,overcast clouds
168,Avarua,CK,-21.2078,-159.775,73.45,73,100,11.5,overcast clouds
169,Bayan,CN,46.0833,127.4,12.45,75,51,6.93,broken clouds
170,Hazorasp,UZ,41.3194,61.0742,48.04,37,7,20.04,clear sky
171,Kindu,CD,-2.95,25.95,70.05,98,100,0.65,light rain
172,Mangrol,IN,21.1167,70.1167,84.79,33,0,5.3,clear sky
173,Khatanga,RU,71.9667,102.5,-17.23,96,96,10.85,overcast clouds
174,Shenjiamen,CN,29.9576,122.298,62.78,78,0,11.43,clear sky
175,Bonthe,SL,7.5264,-12.505,83.53,71,6,0.74,clear sky
176,Gornopravdinsk,RU,60.05,69.9,-10.89,91,100,4.47,overcast clouds
177,Savalou,BJ,7.9281,1.9756,88.97,41,98,1.54,overcast clouds
178,Bulawayo,ZW,-20.15,28.5833,72.03,59,97,10.0,light rain
179,Cherskiy,RU,68.75,161.3,-14.75,99,99,3.11,overcast clouds
180,Champerico,GT,14.3,-91.9167,76.69,85,98,5.77,overcast clouds
181,Kodiak,US,57.79,-152.4072,33.31,47,0,28.77,clear sky
182,Nuuk,GL,64.1835,-51.7216,27.21,80,0,5.75,clear sky
183,Kununurra,AU,-15.7667,128.7333,89.58,55,98,4.61,overcast clouds
184,Sangar,RU,63.9242,127.4739,-39.44,98,45,0.83,scattered clouds
185,Bonavista,CA,48.6499,-53.1147,33.03,84,100,8.39,overcast clouds
186,Palmerston,AU,-12.486,130.9833,82.38,84,75,4.61,broken clouds
187,Shiyan,CN,32.6475,110.7781,60.24,70,96,3.58,overcast clouds
188,Nosy Varika,MG,-20.5833,48.5333,81.12,59,69,9.35,broken clouds
189,Portland,US,45.5234,-122.6762,42.48,96,100,5.99,mist
190,Hereford,GB,52.0568,-2.7148,52.65,88,100,1.99,overcast clouds
191,Tautira,PF,-17.7333,-149.15,75.92,79,50,14.29,light rain
192,Laguna,US,38.421,-121.4238,57.02,83,0,0.0,mist
193,Ballina,AU,-28.8667,153.5667,69.01,88,61,7.87,broken clouds
194,Victoria,HK,22.2855,114.1577,75.38,85,95,3.0,overcast clouds
195,Cockburn Town,TC,21.4612,-71.1419,79.93,76,4,8.1,clear sky
196,Port-De-Bouc,FR,43.4,4.9833,57.58,68,0,18.41,clear sky
197,Bobrovskiy,RU,56.6732,60.9807,-2.04,84,0,6.71,clear sky
198,Ahuimanu,US,21.4447,-157.8378,72.75,75,20,4.61,few clouds
199,Lungi,SL,9.2212,-12.6831,82.51,54,60,2.28,broken clouds
200,Karpathos,GR,35.507,27.2132,62.56,59,20,23.02,few clouds
201,Ubinskoye,RU,55.3068,79.6802,-14.37,90,76,8.84,broken clouds
202,Ormara,PK,25.2088,64.6357,79.66,43,48,5.77,scattered clouds
203,Brus,RS,43.3836,21.0336,44.67,71,100,4.36,overcast clouds
204,Sioux Lookout,CA,50.1001,-91.917,32.07,86,75,4.61,broken clouds
205,Namatanai,PG,-3.6667,152.4333,80.56,79,67,4.36,broken clouds
206,Leningradskiy,RU,69.3833,178.4167,-8.12,92,100,1.79,overcast clouds
207,Ornskoldsvik,SE,63.2909,18.7153,32.95,100,100,4.61,overcast clouds
208,Dingle,PH,10.9995,122.6711,76.82,86,80,6.38,broken clouds
209,Maltahohe,NA,-24.8333,16.9833,83.98,12,0,7.23,clear sky
210,Gorom-Gorom,BF,14.4439,-0.2361,84.04,8,6,15.88,clear sky
211,Adrar,MR,20.5022,-10.0711,76.86,14,91,13.96,overcast clouds
212,Dreux,FR,48.6667,1.25,42.51,84,100,9.78,overcast clouds
213,Yermekeyevo,RU,54.0761,53.6712,17.46,77,100,13.31,overcast clouds
214,Aswan,EG,24.0934,32.907,74.5,38,0,10.36,clear sky
215,Vestmannaeyjar,IS,63.4427,-20.2734,40.19,87,75,14.97,moderate rain
216,Marienburg,PL,54.0359,19.0266,37.85,90,94,0.76,overcast clouds
217,San Pablo,PH,14.0669,121.3258,83.89,90,31,3.85,scattered clouds
218,Sukabumi,ID,-6.9181,106.9267,73.49,88,96,3.8,moderate rain
219,Fort Abbas,PK,29.1925,72.8536,82.33,11,89,5.73,overcast clouds
220,Cascais,PT,38.6979,-9.4215,53.98,76,0,8.01,clear sky
221,Keti Bandar,PK,24.1447,67.4497,84.25,31,43,8.93,scattered clouds
222,Nikolskoye,RU,59.7035,30.7861,12.09,79,85,6.78,overcast clouds
223,Garowe,SO,8.4054,48.4845,86.67,33,0,5.26,clear sky
224,Provideniya,RU,64.3833,-173.3,8.26,80,13,8.75,few clouds
225,Oxford,GB,51.7522,-1.256,51.48,92,20,10.36,few clouds
226,Valparaiso,CL,-33.0393,-71.6273,62.01,92,100,4.61,fog
227,Port Moresby,PG,-9.4431,147.1797,76.42,94,75,11.5,light rain
228,Hofn,IS,64.2539,-15.2082,43.34,84,100,14.9,overcast clouds
229,Tolu,CO,9.5239,-75.5814,76.24,87,52,2.8,light rain
230,Pacific Grove,US,36.6177,-121.9166,57.81,50,0,8.05,clear sky
231,Necochea,AR,-38.5473,-58.7368,59.38,81,69,12.62,light rain
232,Iqaluit,CA,63.7506,-68.5145,1.13,66,20,3.44,few clouds
233,Sola,VU,-13.8833,167.55,74.07,94,81,0.0,broken clouds
234,Ilulissat,GL,69.2167,-51.1,12.22,79,75,1.14,broken clouds
235,Mochudi,BW,-24.4167,26.15,77.59,36,97,12.66,overcast clouds
236,Shakawe,BW,-18.3667,21.85,83.1,44,100,9.42,overcast clouds
237,Margate,GB,51.3813,1.3862,53.91,91,100,3.0,overcast clouds
238,Japura,ID,-0.3167,102.35,84.87,67,75,3.09,broken clouds
239,Clyde River,CA,70.4692,-68.5914,-7.37,84,100,10.36,overcast clouds
240,Yeniseysk,RU,58.4497,92.1703,-16.47,93,5,4.21,clear sky
241,Cairns,AU,-16.9167,145.7667,79.11,87,40,5.75,scattered clouds
242,Saint-Joseph,RE,-21.3667,55.6167,84.11,69,10,12.08,clear sky
243,Opuwo,NA,-18.0607,13.84,93.79,13,6,13.33,clear sky
244,Kaitangata,NZ,-46.2817,169.8464,43.47,81,83,4.79,broken clouds
245,Guerrero Negro,MX,27.9769,-114.0611,58.26,54,0,3.42,clear sky
246,Kulhudhuffushi,MV,6.6221,73.07,80.92,70,92,4.29,overcast clouds
247,Puerto Maldonado,PE,-12.6,-69.1833,69.6,99,33,1.81,scattered clouds
248,Nadym,RU,65.5333,72.5167,-5.28,100,73,6.17,broken clouds
249,Kirakira,SB,-10.4544,161.9205,80.31,81,90,2.53,overcast clouds
250,Bandarbeyla,SO,9.4942,50.8122,82.06,63,20,15.41,few clouds
251,Homer,US,59.6425,-151.5483,35.47,57,0,6.91,clear sky
252,Yulara,AU,-25.2406,130.9889,75.2,63,80,6.78,broken clouds
253,Poum,NC,-20.2333,164.0167,77.13,71,20,10.02,few clouds
254,Ixtapa,MX,20.7,-105.2,68.23,89,4,1.01,clear sky
255,Tuyen Quang,VN,21.8233,105.2181,72.64,96,100,2.01,overcast clouds
256,Saint Anthony,US,45.0205,-93.218,41.14,65,0,8.05,clear sky
257,Walla Walla,US,46.0646,-118.343,41.86,91,100,8.99,overcast clouds
258,Quatre Cocos,MU,-20.2078,57.7625,82.51,62,55,15.61,broken clouds
259,Ola,RU,59.5833,151.2833,-6.5,87,84,13.98,broken clouds
260,Narsaq,GL,60.9167,-46.05,46.62,68,100,9.84,overcast clouds
261,East Wenatchee Bench,US,47.4257,-120.2812,36.32,89,0,1.01,clear sky
262,Marfino,RU,55.7028,37.3822,25.16,86,100,11.18,overcast clouds
263,Dudinka,RU,69.4058,86.1778,-18.38,100,96,5.73,overcast clouds
264,Marivan,IR,35.5219,46.176,54.14,60,24,14.23,light rain
265,Hvide Sande,DK,56.0045,8.1294,50.47,85,50,9.6,scattered clouds
266,Fort Nelson,CA,58.8053,-122.7002,13.95,94,0,2.3,clear sky
267,Bayshore Gardens,US,27.4253,-82.5904,72.12,91,100,0.0,fog
268,Bathsheba,BB,13.2167,-59.5167,81.21,78,40,16.11,scattered clouds
269,Sibi,PK,29.5448,67.8764,82.74,8,72,3.11,broken clouds
270,Mian Channun,PK,30.44,72.3543,83.48,9,41,3.06,scattered clouds
271,Qandala,SO,11.472,49.8728,80.96,67,0,8.08,clear sky
272,Fairbanks,US,64.8378,-147.7164,17.56,86,100,0.0,light snow
273,Akureyri,IS,65.6835,-18.0878,40.93,87,100,5.75,overcast clouds
274,Halifax,CA,44.6453,-63.5724,42.8,91,100,18.41,overcast clouds
275,Iralaya,HN,15.0,-83.2333,77.99,87,48,7.87,moderate rain
276,Wattegama,LK,6.7989,81.4808,81.32,76,95,3.67,overcast clouds
277,Tottori,JP,35.5,134.2333,59.07,77,40,3.44,scattered clouds
278,San Carlos De Bariloche,AR,-41.1456,-71.3082,52.45,44,0,2.3,clear sky
279,Shibetsu,JP,43.659,145.132,50.7,87,75,9.22,broken clouds
280,Nemuro,JP,43.3236,145.575,51.76,85,88,20.85,moderate rain
281,Christchurch,NZ,-43.5333,172.6333,55.94,82,40,3.44,scattered clouds
282,Saint George,US,37.1041,-113.5841,36.19,48,0,0.0,clear sky
283,Esperance,AU,-33.8667,121.9,61.12,70,97,14.54,overcast clouds
284,Vyazemskiy,RU,47.5378,134.7525,20.41,93,100,11.34,light snow
285,Novyy Nekouz,RU,57.9029,38.07,15.51,89,53,5.88,broken clouds
286,The Valley,AI,18.217,-63.0578,79.11,73,9,15.64,clear sky
287,Kutum,SD,14.2,24.6667,73.83,10,0,8.61,clear sky
288,Guiratinga,BR,-16.3494,-53.7583,74.05,53,90,2.77,overcast clouds
289,Noumea,NC,-22.2763,166.4572,71.58,72,3,10.04,clear sky
290,Sinnamary,GF,5.3833,-52.95,76.66,88,99,4.21,overcast clouds
291,Canmore,CA,51.0834,-115.3521,32.11,96,77,5.75,broken clouds
292,Tocopilla,CL,-22.092,-70.1979,65.73,78,39,1.72,scattered clouds
293,Kampot,KH,10.6167,104.1833,86.05,79,92,5.17,light rain
294,Rocha,UY,-34.4833,-54.3333,62.92,85,5,5.44,clear sky
295,Iskateley,RU,67.6803,53.1512,8.4,94,35,11.52,scattered clouds
296,Carballo,ES,43.213,-8.691,56.89,82,100,8.97,overcast clouds
297,Nantucket,US,41.2835,-70.0995,44.71,60,0,23.02,clear sky
298,Alegrete,BR,-29.7831,-55.7919,64.31,68,0,12.97,clear sky
299,Artigas,UY,-30.4,-56.4667,66.33,54,0,9.95,clear sky
300,Poso,ID,-1.3959,120.7524,79.99,85,95,0.47,overcast clouds
301,Nador,MA,35.174,-2.9287,66.45,77,40,6.91,scattered clouds
302,Ostrovnoy,RU,68.0531,39.5131,24.24,82,97,19.22,overcast clouds
303,Key West,US,24.5557,-81.7826,77.0,100,0,4.61,clear sky
304,Jamestown,US,42.097,-79.2353,36.99,80,0,5.75,clear sky
305,Saint Pete Beach,US,27.7253,-82.7412,73.13,86,100,4.61,mist
306,Tiksi,RU,71.6872,128.8694,-19.37,97,100,8.23,overcast clouds
307,Southbridge,US,42.0751,-72.0334,38.66,71,6,1.99,clear sky
308,Warrnambool,AU,-38.3833,142.4833,58.64,88,75,15.37,broken clouds
309,Atar,MR,20.5169,-13.0499,62.65,17,0,11.5,clear sky
310,Flinders,AU,-34.5833,150.8552,64.38,73,98,8.48,overcast clouds
311,Santa Marta,CO,11.2408,-74.199,80.89,73,94,1.01,overcast clouds
312,College,US,64.8569,-147.8028,17.55,85,100,0.0,light snow
313,Kyaukse,MM,21.6,96.1333,85.59,43,22,5.95,few clouds
314,Pimentel,PE,-6.8367,-79.9342,63.97,94,74,7.38,broken clouds
315,Muroto,JP,33.2833,134.15,64.4,71,98,2.59,overcast clouds
316,Pangnirtung,CA,66.1451,-65.7125,-4.09,72,80,6.26,broken clouds
317,Rio Verde De Mato Grosso,BR,-18.9181,-54.8442,75.56,50,16,9.15,few clouds
318,Vardo,NO,70.3705,31.1107,24.78,86,67,16.11,broken clouds
319,Bradut,RO,46.1333,25.6167,37.26,73,92,4.36,overcast clouds
320,Rafraf,TN,37.1904,10.1837,62.92,68,94,30.4,light rain
321,Camacupa,AO,-12.0167,17.4833,73.89,70,100,2.13,light rain
322,Englehart,CA,47.8169,-79.8664,30.76,86,0,14.97,clear sky
323,Samarai,PG,-10.6167,150.6667,84.2,73,77,4.45,broken clouds
324,Talnakh,RU,69.4865,88.3972,-18.8,99,87,6.87,overcast clouds
325,Nhulunbuy,AU,-12.2333,136.7667,86.61,70,98,11.5,overcast clouds
326,Brae,GB,60.3964,-1.353,50.56,83,100,18.41,overcast clouds
327,Hambantota,LK,6.1241,81.1185,86.34,79,20,5.75,few clouds
328,Touros,BR,-5.1989,-35.4608,81.7,70,39,13.33,scattered clouds
329,Tecoanapa,MX,16.5167,-98.75,75.16,90,11,3.94,few clouds
330,Ust-Karsk,RU,52.7011,118.8077,-6.83,100,96,1.99,overcast clouds
331,Codrington,AU,-38.2667,141.9667,58.14,85,44,12.44,scattered clouds
332,Fernie,CA,49.5,-115.0687,35.8,99,100,2.8,overcast clouds
333,Sligo,IE,54.2697,-8.4694,53.69,87,100,17.27,overcast clouds
334,Sarangani,PH,5.4033,125.4636,83.88,77,90,21.21,overcast clouds
335,Pinheiro Machado,BR,-31.5783,-53.3811,60.06,83,0,6.82,clear sky
336,Omboue,GA,-1.5746,9.2618,75.56,91,100,5.48,overcast clouds
337,Gboko,NG,7.3179,8.9951,88.66,18,1,6.38,clear sky
338,Taybad,IR,34.74,60.7756,74.19,14,0,8.05,clear sky
339,Chengde,CN,40.9725,117.9361,26.49,24,51,2.62,broken clouds
340,Senanga,ZM,-16.1167,23.2667,85.57,40,98,11.3,overcast clouds
341,Namibe,AO,-15.1961,12.1522,76.55,68,47,14.2,scattered clouds
342,Villa Del Rosario,CO,7.8339,-72.4742,68.29,92,96,3.38,overcast clouds
343,Saint-Raymond,CA,45.467,-73.6095,35.94,72,100,6.91,overcast clouds
344,Shimoda,JP,34.6667,138.95,57.11,82,100,10.45,overcast clouds
345,Manggar,ID,-2.8833,108.2667,80.89,78,100,8.84,overcast clouds
346,Santa Maria,BR,-29.6842,-53.8069,63.7,88,75,9.22,broken clouds
347,Asfi,MA,32.2994,-9.2372,70.84,50,0,8.7,clear sky
348,Awjilah,LY,29.1081,21.2869,68.54,48,94,5.08,overcast clouds
349,Sorong,ID,-0.8833,131.25,82.81,75,100,5.26,light rain
350,Yadrin,RU,55.9405,46.2062,21.83,91,79,4.56,broken clouds
351,Hamilton,US,39.1834,-84.5333,34.77,94,100,0.0,fog
352,Nyurba,RU,63.2842,118.3319,-38.22,100,63,1.41,broken clouds
353,Cedar City,US,37.6775,-113.0619,31.39,79,0,4.61,clear sky
354,Sambava,MG,-14.2667,50.1667,80.8,62,0,14.14,clear sky
355,Puerto Escondido,MX,15.85,-97.0667,76.21,84,53,4.59,broken clouds
356,Punta Alta,AR,-38.8759,-62.0736,68.54,62,86,8.88,overcast clouds
357,Batticaloa,LK,7.7102,81.6924,81.79,68,35,9.66,scattered clouds
358,Imeni Poliny Osipenko,RU,52.4201,136.4853,13.32,86,100,21.92,light snow
359,Barra,BR,-11.0894,-43.1417,70.47,92,100,2.39,overcast clouds
360,Erzin,TR,36.9559,36.2,59.97,61,92,4.81,overcast clouds
361,Romny,UA,50.751,33.4747,39.22,87,100,7.99,overcast clouds
362,Marzuq,YE,14.4,46.4667,79.16,22,0,10.63,clear sky
363,Grindavik,IS,63.8424,-22.4338,41.47,87,100,5.75,overcast clouds
364,Chapais,CA,49.7834,-74.8492,26.38,95,100,7.4,overcast clouds
365,Tabou,CI,4.423,-7.3528,82.78,71,6,5.53,clear sky
366,Asau,RO,46.4333,26.4,38.28,63,56,2.71,broken clouds
367,Aldan,RU,58.6031,125.3894,-32.76,100,96,3.09,overcast clouds
368,Bilma,NE,18.6853,12.9164,78.33,16,2,6.44,clear sky
369,Nome,US,64.5011,-165.4064,18.16,79,75,5.75,light snow
370,Nanortalik,GL,60.1432,-45.2371,37.51,73,100,6.49,overcast clouds
371,Port Macquarie,AU,-31.4333,152.9167,66.88,72,87,3.65,overcast clouds
372,Cap Malheureux,MU,-19.9842,57.6142,82.47,60,32,11.99,scattered clouds
373,Meulaboh,ID,4.1363,96.1285,81.77,72,88,5.61,overcast clouds
374,Mayna,RU,54.1135,47.6231,32.27,99,100,5.28,overcast clouds
375,Inhambane,MZ,-23.865,35.3833,84.18,74,40,12.66,thunderstorm
376,San Jeronimo,PE,-11.9472,-75.2829,48.25,81,95,4.32,overcast clouds
377,Malanje,AO,-9.5402,16.341,72.81,75,99,3.83,overcast clouds
378,Pathein,MM,16.7833,94.7333,83.35,76,97,3.96,heavy intensity rain
379,Ondangwa,NA,-17.9167,15.95,96.8,10,15,3.44,few clouds
380,Paka,MY,4.6374,103.4368,85.98,74,40,6.91,scattered clouds
381,Tarakan,ID,3.3,117.6333,85.5,74,20,6.91,few clouds
382,Coquimbo,CL,-29.9533,-71.3436,56.93,100,100,2.3,overcast clouds
383,Dunedin,NZ,-45.8742,170.5036,46.8,85,100,5.59,overcast clouds
384,Torbat-E Jam,IR,35.244,60.6225,69.04,17,0,4.54,clear sky
385,Bowen,AU,-20.0167,148.2333,79.66,74,58,9.71,broken clouds
386,Bac Lieu,VN,9.285,105.7244,81.41,78,84,7.05,broken clouds
387,Ahipara,NZ,-35.1667,173.1667,56.93,91,36,4.52,scattered clouds
388,Phanom Thuan,TH,14.1303,99.6986,83.98,78,58,5.08,broken clouds
389,Sevierville,US,35.8681,-83.5618,47.71,87,0,0.0,clear sky
390,Kidal,ML,18.4411,1.4078,79.07,15,98,17.47,overcast clouds
391,Airai,TL,-8.9266,125.4092,62.78,92,100,1.39,moderate rain
392,Upington,ZA,-28.4478,21.2561,84.58,15,0,9.22,clear sky
393,Waipawa,NZ,-41.4122,175.5153,54.64,78,70,15.08,light rain
394,Tsaratanana,MG,-16.7833,47.65,90.88,27,70,10.16,broken clouds
395,La Ronge,CA,55.1001,-105.2842,30.45,74,0,8.05,clear sky
396,Anloga,GH,5.7947,0.8973,83.5,71,98,10.63,overcast clouds
397,Kuznetsk,RU,53.1167,46.6004,35.4,85,100,7.56,overcast clouds
398,Neyshabur,IR,36.2133,58.7958,64.29,22,0,3.71,clear sky
399,Caravelas,BR,-17.7125,-39.2481,74.79,93,100,10.51,light rain
400,Francisco Sa,BR,-16.4758,-43.4883,69.94,95,100,7.14,light rain
401,Pando,UY,-34.7167,-55.95,66.88,94,20,3.44,fog
402,Xuddur,SO,4.1213,43.8894,89.65,36,25,10.98,scattered clouds
403,Beyneu,KZ,45.3167,55.2,45.39,63,67,25.03,broken clouds
404,Buin,CL,-33.7333,-70.75,77.11,57,0,1.16,clear sky
405,Filadelfia,US,39.9523,-75.1638,43.21,56,20,8.05,few clouds
406,Rio Gallegos,AR,-51.6226,-69.2181,39.25,52,20,9.22,few clouds
407,Mount Gambier,AU,-37.8333,140.7667,56.17,92,0,7.94,clear sky
408,Los Llanos De Aridane,ES,28.6585,-17.9182,67.75,75,40,4.61,scattered clouds
409,Soto La Marina,MX,23.7667,-98.2167,60.21,91,100,7.49,overcast clouds
410,Kichera,RU,55.9375,110.0997,-9.2,73,61,8.37,broken clouds
411,Nanzhou,CN,29.3596,112.4024,68.59,59,1,6.31,clear sky
412,Jinchang,CN,38.4953,102.1739,45.43,23,78,19.95,broken clouds
413,Pallasovka,RU,50.05,46.8833,40.17,70,100,17.78,overcast clouds
414,Innisfail,AU,-17.5333,146.0333,78.91,81,99,1.72,overcast clouds
415,Carroll,US,39.5501,-77.0164,41.32,70,0,4.61,clear sky
416,Terrace,CA,54.5163,-128.6035,40.91,93,100,26.46,light rain
417,Kyabe,TD,9.4515,18.9449,94.01,15,2,7.94,clear sky
418,Savannah Bight,HN,16.45,-85.85,80.78,81,91,16.55,overcast clouds
419,Ivaipora,BR,-24.2478,-51.6847,61.52,79,3,8.41,clear sky
420,Bonfim,BR,3.0833,-59.95,75.78,85,84,2.3,broken clouds
421,Luderitz,NA,-26.6481,15.1594,76.53,40,0,30.18,clear sky
422,Tilichiki,RU,60.4667,166.1,-6.02,100,89,8.93,overcast clouds
423,Lipari,IT,38.4674,14.954,60.21,89,100,11.68,overcast clouds
424,Imbituba,BR,-28.24,-48.6703,70.86,86,100,9.33,overcast clouds
425,Katsuura,JP,35.1333,140.3,64.96,75,100,14.52,overcast clouds
426,Galle,LK,6.0367,80.217,82.18,68,61,6.55,broken clouds
427,Zhumadian,CN,32.9794,114.0294,59.79,61,2,5.97,clear sky
428,Pierre,US,44.3683,-100.351,45.52,42,0,8.05,clear sky
429,Charters Towers,AU,-20.1,146.2667,77.4,73,65,16.89,light rain
430,Northam,GB,51.0333,-4.2167,53.26,84,100,24.67,light rain
431,Banda,IN,25.4833,80.3333,79.11,21,7,6.11,clear sky
432,Atherton,GB,53.5237,-2.4935,49.55,89,100,3.0,overcast clouds
433,Souillac,MU,-20.5167,57.5167,82.78,61,40,11.5,scattered clouds
434,Alyangula,AU,-13.8483,136.4192,85.26,72,84,15.35,broken clouds
435,Amapa,BR,1.0,-52.0,71.1,96,81,0.47,broken clouds
436,Shelton,US,41.3165,-73.0932,42.96,61,0,9.22,clear sky
437,Vicuna,CL,-30.0319,-70.7081,49.73,50,2,1.05,clear sky
438,Loja,EC,-3.9931,-79.2042,51.51,91,61,3.76,broken clouds
439,Goderich,CA,43.7501,-81.7165,41.92,87,10,10.36,clear sky
440,Ouadda,CF,8.0777,22.4007,88.23,19,71,5.06,broken clouds
441,Sorland,NO,67.667,12.6934,40.86,68,100,7.02,overcast clouds
442,Russell,US,32.3502,-85.1999,54.63,100,100,0.0,fog
443,Abalak,RU,58.1286,68.5944,-8.46,90,62,2.26,broken clouds
444,Sao Filipe,CV,14.8961,-24.4956,77.14,65,0,7.87,clear sky
445,Antalaha,MG,-14.9003,50.2788,80.49,66,5,14.27,clear sky
446,San Felipe,VE,10.3399,-68.7425,72.14,98,89,1.01,overcast clouds
447,Oistins,BB,13.0667,-59.5333,80.69,78,40,16.11,scattered clouds
448,Boali,CF,4.8005,18.1275,91.24,39,81,0.92,broken clouds
449,Wau,SS,7.7029,27.9953,95.02,15,9,7.18,clear sky
450,Strezhevoy,RU,60.7333,77.5889,-11.51,89,100,6.29,overcast clouds
451,Reconquista,AR,-29.15,-59.65,72.16,46,4,5.73,clear sky
452,Liverpool,GB,53.4106,-2.9779,49.95,89,0,11.5,light rain
453,Ostersund,SE,63.1792,14.6357,31.6,93,20,31.0,few clouds
454,Shuangyang,CN,43.5242,125.6736,20.08,32,0,10.33,clear sky
455,Dali,CN,25.7,100.1833,58.62,43,0,6.31,clear sky
456,Ruston,US,32.5232,-92.6379,55.22,94,100,0.0,overcast clouds
457,Shenkursk,RU,62.1091,42.896,10.09,88,21,2.17,few clouds
458,Maniitsoq,GL,65.4167,-52.9,24.75,65,18,2.44,few clouds
459,Lata,PT,40.1629,-8.3327,53.82,56,55,2.95,broken clouds
460,Broken Hill,AU,-31.95,141.4333,81.39,22,100,7.2,overcast clouds
461,Edd,ER,13.9297,41.6925,90.09,44,0,17.83,clear sky
462,Aranjuez,ES,40.0311,-3.6025,52.54,52,64,2.01,broken clouds
463,Acapulco,MX,16.8634,-99.8901,76.82,88,0,2.3,clear sky
464,Lagoa,PT,39.05,-27.9833,61.27,59,100,18.79,overcast clouds
465,Arman,RU,59.7,150.1667,-10.77,85,50,12.53,scattered clouds
466,Thakurgaon,BD,26.0333,88.4667,80.92,39,0,0.96,clear sky
467,Coahuayana,MX,18.7333,-103.6833,71.28,92,95,3.11,overcast clouds
468,Zhigansk,RU,66.7697,123.3711,-33.81,97,100,8.61,overcast clouds
469,Ukiah,US,39.1502,-123.2078,56.05,84,0,3.44,clear sky
470,Henties Bay,NA,-22.116,14.2845,63.27,72,11,14.34,few clouds
471,Yining,CN,29.0361,114.5636,64.13,70,2,3.15,clear sky
472,Masuguru,TZ,-11.3667,38.4167,98.71,22,11,5.08,few clouds
473,Itarema,BR,-2.9248,-39.9167,80.51,72,69,13.31,broken clouds
474,Kupang,ID,-10.1667,123.5833,77.58,100,75,3.44,broken clouds
475,Khasan,RU,42.4308,130.6434,29.93,43,0,19.84,clear sky
476,Douglas,US,41.3,-96.167,37.38,69,0,10.36,clear sky
477,Berlevag,NO,70.8578,29.0864,26.4,80,42,12.66,scattered clouds
478,Luza,RU,60.6308,47.2512,12.92,81,7,3.51,clear sky
479,Jijiga,ET,9.35,42.8,77.05,23,4,8.97,clear sky
480,Izmit,TR,40.7669,29.9169,48.4,93,75,4.61,broken clouds
481,Non Thai,TH,15.1981,102.0358,90.09,76,89,4.25,overcast clouds
482,Capaci,IT,38.1711,13.2393,60.26,86,75,5.75,broken clouds
483,Lysyye Gory,RU,51.5506,44.8414,37.83,80,100,13.89,overcast clouds
484,Podosinovets,RU,60.2776,47.0659,13.73,84,10,3.74,clear sky
485,Srednekolymsk,RU,67.45,153.6833,-24.65,99,98,6.17,overcast clouds
486,Vestmanna,FO,62.1564,-7.1664,49.12,100,100,16.11,moderate rain
487,Huarmey,PE,-10.0681,-78.1522,65.86,93,75,6.08,broken clouds
488,Emba,KZ,48.8264,58.1442,24.01,49,96,19.42,overcast clouds
489,Kanchanaburi,TH,14.6333,99.1,79.0,90,79,3.6,broken clouds
490,Yazd,IR,31.8972,54.3675,75.31,19,0,4.61,clear sky
491,Gat,IL,31.61,34.7642,68.68,100,69,12.28,broken clouds
492,Chuy,UY,-33.6971,-53.4616,66.74,83,0,6.51,clear sky
493,Cardston,CA,49.2,-113.3019,28.69,86,100,2.3,overcast clouds
494,Auki,SB,-8.7676,160.7034,78.28,86,91,2.95,overcast clouds
495,Baoqing,CN,46.3317,132.2111,18.61,61,85,14.47,overcast clouds
496,Puerto Ayacucho,VE,5.6639,-67.6236,73.09,93,95,2.44,overcast clouds
497,Tynda,RU,55.1667,124.7167,-14.21,96,100,2.19,overcast clouds
498,Hermosillo,MX,29.0667,-110.9667,59.85,40,0,1.99,clear sky
499,Port Hedland,AU,-20.3167,118.5667,84.25,65,92,18.41,overcast clouds
500,Port Hawkesbury,CA,45.6169,-61.3485,48.9,99,100,26.46,mist
501,Arlit,NE,18.7369,7.3853,79.16,16,54,2.37,broken clouds
502,Sisimiut,GL,66.9395,-53.6735,17.11,92,73,11.1,broken clouds
503,Anqiu,CN,36.4342,119.1925,42.37,40,5,4.47,clear sky
504,Basco,PH,20.4487,121.9702,81.99,78,80,8.84,broken clouds
505,Paamiut,GL,61.994,-49.6678,27.0,83,13,17.74,few clouds
506,Wajima,JP,37.4,136.9,56.08,94,75,2.3,broken clouds
507,San Sebastian De Los Reyes,ES,40.5443,-3.6159,50.86,75,0,3.44,clear sky
508,Lannion,FR,48.75,-3.4167,53.01,92,0,11.5,clear sky
509,Petropavlovsk-Kamchatskiy,RU,53.0452,158.6483,16.39,62,40,8.95,scattered clouds
510,Huilong,CN,31.8111,121.655,60.3,80,3,9.04,clear sky
511,Mehamn,NO,71.0357,27.8492,24.75,86,13,11.5,few clouds
512,Kargopol,RU,61.5071,38.9456,13.08,85,42,2.55,scattered clouds
513,Mahajanga,MG,-15.7167,46.3167,95.02,36,20,9.22,few clouds
514,Lewiston,US,44.1003,-70.2148,36.79,68,100,19.57,overcast clouds
515,Marawi,PH,7.9986,124.2928,70.34,95,59,1.92,light rain
516,Maraa,BR,-1.8333,-65.3667,71.31,99,100,0.74,overcast clouds
517,Saint-Francois,FR,46.4154,3.9054,43.68,100,100,3.44,overcast clouds
518,Moose Factory,CA,51.2585,-80.6094,33.8,80,100,18.41,overcast clouds
519,Saint-Augustin,CA,51.226,-58.6502,23.47,94,100,6.8,overcast clouds
520,Sao Felix Do Xingu,BR,-6.6447,-51.995,71.73,99,99,0.56,moderate rain
521,Abbeville,FR,50.1,1.8333,50.25,82,100,10.4,overcast clouds
522,San Nicolas,PH,18.1725,120.5953,84.11,84,20,11.5,few clouds
523,Moron,AR,-34.6534,-58.6198,70.02,84,41,8.61,scattered clouds
524,Tazovskiy,RU,67.4667,78.7,-14.24,99,40,6.42,scattered clouds
525,Plettenberg Bay,ZA,-34.0527,23.3716,66.47,53,43,10.31,scattered clouds
526,Dobryanka,RU,58.4619,56.4165,14.04,90,92,6.42,light snow
527,Espanola,US,35.9911,-106.0806,37.83,43,4,3.29,clear sky
528,Copiapo,CL,-27.3667,-70.3333,56.89,46,0,0.43,clear sky
529,Kathu,TH,7.9178,98.3332,84.02,74,61,10.8,broken clouds
530,Beringovskiy,RU,63.05,179.3167,2.25,99,87,4.59,overcast clouds
531,Samarinda,ID,-0.5,117.15,77.7,95,99,2.89,overcast clouds
532,Sovetskiy,RU,61.3614,63.5842,0.63,92,15,5.55,few clouds
533,Ternate,ID,0.8,127.4,82.26,77,99,6.42,overcast clouds
534,Honningsvag,NO,70.9821,25.9704,29.95,80,40,19.57,scattered clouds
535,Devils Lake,US,48.1128,-98.8651,37.38,77,0,12.66,clear sky
536,Arkhangelsk,RU,64.5401,40.5433,5.11,92,40,2.24,scattered clouds
537,Akcakoca,TR,41.0866,31.1162,51.03,71,91,7.18,overcast clouds
538,Moramanga,MG,-18.9333,48.2,80.69,37,18,7.49,few clouds
539,Sobolevo,RU,54.4299,31.8996,31.77,98,100,10.74,snow
540,Nabire,ID,-3.3667,135.4833,78.28,85,73,1.12,light rain
541,Camocim,BR,-2.9022,-40.8411,78.28,77,76,9.75,broken clouds
542,Magadan,RU,59.5667,150.8,-3.14,77,66,14.85,broken clouds
543,Jasper,US,37.2001,-94.3502,38.64,90,0,4.61,clear sky
544,Manaquiri,BR,-3.3167,-60.35,79.25,88,100,2.19,overcast clouds
545,Te Anau,NZ,-45.4167,167.7167,40.91,98,95,3.8,overcast clouds
546,Yumen,CN,40.2833,97.2,39.07,32,3,17.63,clear sky
547,Virginia Beach,US,36.8529,-75.978,51.84,60,0,13.8,clear sky
548,Trairi,BR,-3.2778,-39.2689,81.82,66,96,11.83,overcast clouds
549,Yar-Sale,RU,66.8333,70.8333,-3.96,100,63,4.61,broken clouds
550,Dubbo,AU,-32.25,148.6167,73.53,33,52,0.0,broken clouds
551,Ciudad Bolivar,VE,8.1222,-63.5497,74.35,89,100,6.33,overcast clouds
552,Cooma,AU,-36.2333,149.1333,56.59,69,100,5.95,overcast clouds
553,Kainantu,PG,-6.2887,145.8655,61.11,94,79,2.35,broken clouds
554,Vaitape,PF,-16.5167,-151.75,78.26,75,75,16.11,broken clouds
555,Pinyug,RU,60.251,47.7842,13.26,84,10,3.89,clear sky
556,Mayo,US,38.8876,-76.5119,44.98,71,0,6.91,clear sky
557,Acajutla,SV,13.5928,-89.8275,76.37,86,97,4.74,overcast clouds
558,Palmer,US,42.1584,-72.3287,39.45,58,100,10.36,overcast clouds
559,Sinjar,IQ,36.3209,41.8754,58.48,56,55,9.22,broken clouds
560,Teknaf,BD,20.8624,92.3058,80.29,63,78,9.86,broken clouds
561,Anadyr,RU,64.75,177.4833,16.3,86,75,2.24,light snow
562,Sulina,RO,45.1559,29.6536,44.56,64,71,17.58,broken clouds
563,Luchow,DE,52.9667,11.15,46.11,86,1,7.72,clear sky
564,Columbus,US,39.9612,-82.9988,34.32,95,0,3.44,mist
565,Ciego De Avila,CU,21.84,-78.7619,70.74,94,3,4.34,clear sky
566,Abu Samrah,SY,35.3029,37.1841,60.89,56,19,17.6,few clouds
567,Olsztyn,PL,53.7799,20.4942,30.16,83,93,3.98,overcast clouds
568,Soma,TR,39.1855,27.6094,53.02,57,34,10.38,scattered clouds
569,Belaya Gora,RU,68.5333,146.4167,-25.04,100,99,1.81,overcast clouds
570,Anahuac,MX,27.2333,-100.15,50.38,78,100,11.97,overcast clouds
571,Thornaby,GB,54.5333,-1.3,47.28,90,20,20.71,few clouds
572,Morrope,PE,-6.5417,-80.0111,63.09,96,89,6.55,overcast clouds
573,Ayame,CI,5.6083,-3.1563,85.82,62,20,3.29,few clouds
574,Ust-Tarka,RU,55.5672,75.705,-10.52,92,11,6.15,few clouds
575,Sao Gabriel Da Cachoeira,BR,-0.1303,-67.0892,71.31,99,97,1.21,overcast clouds
576,Denpasar,ID,-8.65,115.2167,76.71,100,75,6.91,broken clouds
577,Huai Yot,TH,7.7893,99.6348,83.82,77,71,6.15,broken clouds
578,Barranca,PE,-10.75,-77.7667,64.96,91,79,5.44,broken clouds
579,Koppal,IN,15.35,76.15,85.35,46,88,5.01,overcast clouds
580,Husavik,IS,66.0449,-17.3389,39.96,98,100,5.1,overcast clouds
581,Zhezkazgan,KZ,47.8043,67.7144,17.58,45,0,22.37,clear sky
582,Lock Haven,US,41.137,-77.4469,40.62,76,7,3.51,clear sky
583,Ponta Delgada,PT,37.7333,-25.6667,63.5,77,40,9.22,scattered clouds
584,Pasighat,IN,28.0667,95.3333,72.25,58,0,1.12,clear sky
585,Sarab,IR,38.6066,44.9883,53.29,61,71,11.48,broken clouds
586,Kibala,TD,9.1104,18.3463,89.55,29,0,6.91,clear sky
587,West Wendover,US,40.7391,-114.0733,22.21,80,0,0.0,clear sky
588,Lerwick,GB,60.1545,-1.1494,51.8,85,100,19.37,overcast clouds
589,Nizhniy Baskunchak,RU,48.2198,46.8311,46.26,61,100,21.32,overcast clouds
590,Ambilobe,MG,-13.2,49.05,96.28,26,0,2.84,clear sky
591,Minden,DE,52.2833,8.9167,45.95,94,24,4.61,few clouds
592,Ambulu,ID,-8.345,113.6058,75.2,92,100,4.12,light rain
593,Madimba,TZ,-10.4,40.3333,87.12,58,75,14.97,broken clouds
594,Lompoc,US,34.6391,-120.4579,52.59,71,0,3.44,clear sky
595,Ozernovskiy,RU,51.5,156.5167,28.99,56,58,9.57,broken clouds
596,Wageningen,NL,51.9667,5.6667,43.95,98,100,5.75,mist
597,Aden,YE,12.7794,45.0367,80.96,67,0,14.2,clear sky
598,Kendari,ID,-3.945,122.4989,79.79,81,26,2.59,scattered clouds
599,Rundu,NA,-17.9333,19.7667,88.63,34,73,10.83,broken clouds
600,Cabedelo,BR,-6.9811,-34.8339,75.87,72,51,9.57,broken clouds
601,Rockport,US,28.0206,-97.0544,57.24,94,100,25.32,overcast clouds
602,Larvik,NO,59.0533,10.0352,43.92,98,100,5.75,drizzle
603,Kopavogur,IS,64.1123,-21.913,41.22,87,100,12.66,moderate rain
604,Tulungagung,ID,-8.0657,111.9025,75.38,94,100,4.0,moderate rain
605,Baruun-Urt,MN,46.6806,113.2792,9.25,70,100,5.99,overcast clouds
606,Kamariotissa,GR,40.4833,25.4667,52.88,61,98,13.94,overcast clouds
607,Grimshaw,CA,56.1834,-117.6027,27.16,86,20,3.44,few clouds
608,Curillo,CO,1.0333,-75.9191,69.8,98,100,0.89,overcast clouds
609,Port Hardy,CA,50.6996,-127.4199,42.98,100,100,3.44,light intensity shower rain
610,Oranjemund,NA,-28.55,16.4333,66.36,63,0,22.91,clear sky
611,Phalaborwa,ZA,-23.943,31.1411,79.88,59,97,10.13,overcast clouds
612,Graham,US,47.0529,-122.2943,38.59,92,100,0.0,mist
613,Qaqortoq,GL,60.7167,-46.0333,33.17,70,100,8.9,overcast clouds
614,Sao Sebastiao,BR,-23.76,-45.4097,70.54,83,98,3.71,light rain
615,Siddipet,IN,18.1,78.85,82.29,32,4,6.35,clear sky
616,Eureka,US,40.8021,-124.1637,50.61,93,100,6.17,overcast clouds
617,San Ramon,US,37.7799,-121.978,56.26,45,0,6.91,clear sky
618,Gushikawa,JP,26.3544,127.8686,74.43,78,75,11.5,broken clouds
619,Olinda,BR,-8.0089,-34.8553,80.33,74,75,5.75,broken clouds
620,Athens,GR,37.9795,23.7162,63.1,48,20,9.22,few clouds
621,Zermatt,CH,46.0213,7.7491,38.55,22,52,13.8,broken clouds
622,Bizhbulyak,RU,53.6967,54.2642,16.0,78,100,13.62,overcast clouds
623,Tabas,IR,33.5959,56.9244,73.29,15,4,2.98,clear sky
624,Mareeba,AU,-17.0,145.4333,74.48,92,73,3.4,broken clouds
625,Glenwood Springs,US,39.5505,-107.3248,42.03,54,0,5.75,clear sky
626,Mitsamiouli,KM,-11.3847,43.2844,88.09,62,20,12.66,few clouds
627,Kuandian,CN,40.7286,124.7847,25.9,35,1,3.31,clear sky
628,Jutai,BR,-5.1833,-68.9,71.85,98,100,1.25,overcast clouds
629,Apatou,GF,5.155,-54.3472,72.34,99,77,1.99,broken clouds
630,Maceio,BR,-9.6658,-35.7353,74.64,94,40,4.61,scattered clouds
631,Beibei,CN,29.8256,106.4339,69.37,67,100,5.41,overcast clouds
632,Qesarya,IL,32.5189,34.9046,67.96,54,55,17.16,broken clouds
633,Tupik,RU,54.4253,119.9327,-14.26,100,92,1.21,overcast clouds
634,Ocean City,US,39.2776,-74.5746,43.99,71,1,3.0,clear sky
635,Nara,JP,34.6851,135.8049,57.49,65,41,3.22,scattered clouds
636,Hovd,MN,48.0056,91.6419,22.78,30,0,17.22,clear sky
637,Almaznyy,RU,48.0448,40.045,38.5,80,100,11.56,overcast clouds
638,Manbij,SY,36.5281,37.9549,52.39,80,100,11.07,overcast clouds
639,Yeppoon,AU,-23.1333,150.7333,80.38,73,55,9.37,broken clouds
640,Fatehpur,IN,25.9333,80.8,77.4,26,9,5.79,clear sky
641,Alugan,PH,12.2188,125.4808,80.58,81,70,9.95,broken clouds
642,Port-Gentil,GA,-0.7193,8.7815,80.56,78,40,2.3,scattered clouds
643,Kargasok,RU,59.0556,80.8572,-18.58,94,17,7.09,few clouds
644,Asyut,EG,27.181,31.1837,71.78,38,2,8.63,clear sky
645,Jieshi,CN,22.8134,115.8257,72.43,86,100,6.46,overcast clouds
646,Manakara,MG,-22.1333,48.0167,83.01,56,80,12.77,broken clouds
647,Malakwal,PK,32.5536,73.2123,77.92,18,0,0.65,clear sky
648,Grand Gaube,MU,-20.0064,57.6608,82.8,60,37,11.99,scattered clouds
649,Molde,NO,62.7375,7.1591,48.04,53,75,8.05,broken clouds
650,Rehoboth,NA,-23.3167,17.0833,87.58,12,0,2.98,clear sky
651,Tinglev,DK,54.931,9.2524,47.75,99,10,5.75,clear sky
652,Lorengau,PG,-2.0226,147.2712,82.36,68,61,4.41,broken clouds
653,Les Cayes,HT,18.2,-73.75,74.88,82,2,4.12,clear sky
654,Isla Vista,US,34.4133,-119.861,62.46,43,0,0.0,clear sky
655,Tessalit,ML,20.1986,1.0114,79.12,15,98,12.71,overcast clouds
656,Kapuskasing,CA,49.4169,-82.4331,32.09,86,75,8.05,broken clouds
657,Viedma,AR,-40.8135,-62.9967,72.18,35,100,2.57,overcast clouds
658,Saurimo,AO,-9.6608,20.3916,77.32,69,75,6.91,broken clouds
659,Emilio Carranza,MX,19.9711,-96.6114,73.8,92,94,4.88,overcast clouds
660,Dingolfing,DE,48.6333,12.5,44.6,89,100,7.09,overcast clouds
661,Umm Lajj,SA,25.0213,37.2685,79.83,39,0,15.05,clear sky
662,Ryotsu,JP,38.0833,138.4333,57.11,74,74,9.64,broken clouds
663,Guilin,CN,25.2819,110.2864,68.11,81,98,3.4,overcast clouds
664,Sadalgi,IN,16.5667,74.55,89.47,36,41,3.47,scattered clouds
665,Najran,SA,17.4924,44.1277,75.85,25,1,12.12,clear sky
666,Ulaangom,MN,49.9811,92.0667,14.16,74,100,14.07,light snow
667,Nalut,LY,30.3333,10.85,69.96,33,100,12.03,overcast clouds
668,Manitouwadge,CA,49.1215,-85.8403,36.32,91,100,13.2,overcast clouds
669,Waddan,LY,29.1614,16.139,68.49,52,48,5.86,scattered clouds
670,Sucha Beskidzka,PL,49.7419,19.5943,44.01,95,97,2.57,overcast clouds
671,Visnes,NO,59.3556,5.2242,49.21,93,75,9.22,broken clouds
672,Pangody,RU,65.85,74.4859,-12.32,100,65,5.64,broken clouds
673,Karasjok,NO,69.4719,25.5112,9.1,98,23,5.08,few clouds
674,Mamit,IN,23.9333,92.4833,83.23,51,0,3.44,haze
675,Atambua,ID,-9.1061,124.8925,77.18,77,100,1.7,heavy intensity rain
676,Khandyga,RU,62.6667,135.6,-46.44,100,64,0.85,broken clouds
677,Vallenar,CL,-28.5708,-70.7581,66.25,42,53,2.48,broken clouds
678,Illela,NG,13.7292,5.2975,83.98,11,84,18.43,broken clouds
679,Lola,GN,7.8,-8.5333,83.12,52,0,0.63,clear sky
680,Broome,US,42.2506,-75.833,37.65,75,75,11.5,broken clouds
681,Ruthin,GB,53.1137,-3.3178,53.31,87,100,8.01,moderate rain
682,Bitung,ID,1.4451,125.1824,85.05,79,100,7.56,overcast clouds
